[
    {
        "name": "U:Don",
        "latitude": 47.66248957041129,
        "longitude": -122.31285800188569,
        "url": "https://freshudon.com/udon-university",
        "has_patio": false,
        "cuisine": "Japanese",
        "image": "assets/u_don.jpg"
    },
    {
        "name": "Saint Bread",
        "latitude": 47.65058,
        "longitude": -122.31297,
        "url": "https://saintbread.com/",
        "has_patio": true,
        "cuisine": "Bakery",
        "image": "assets/saint_bread.jpg"
    },
    {
        "name": "Morsel",
        "latitude": 47.665514059568025,
        "longitude": -122.31287231699613,
        "url": "https://morselseattle.com",
        "has_patio": false,
        "cuisine": "Cafe",
        "image": "assets/morsel.jpeg"
    },
    {
        "name": "Agua Verde Cafe",
        "latitude": 47.65172326985612,
        "longitude":  -122.31400147327928,
        "url": "https://aguaverdecafe.com",
        "has_patio": true,
        "cuisine": "Cafe",
        "image": "assets/agua_verde_cafe.jpg"
    },
    {
        "name": "Fern Thai Eatery & Bar",
        "latitude": 47.61311518086259,
        "longitude": -122.31929794732181,
        "url": "https://www.fernthaioncaphill.com",
        "has_patio": false,
        "cuisine": "Thai",
        "image": "assets/fern_thai_eatery_&_bar.png"
    },
    {
        "name": "Pizzeria La Rocca",
        "latitude": 47.6900977,
        "longitude": -122.3552034,
        "url": "https://pizzalarocca.com",
        "has_patio": true,
        "cuisine": "Pizza",
        "image": "assets/pizzeria_la_rocca.png"
    },
    {
        "name": "Bizzarro",
        "latitude": 47.66217889627344,
        "longitude": -122.34180049162336,
        "url": "https://www.bizzarroitaliancafe.com/",
        "has_patio": false,
        "cuisine": "Italian",
        "image": "assets/bizzarro.jpg"
    },
    {
        "name": "Seattle Best Tea",
        "latitude": 47.6615468359008,
        "longitude": -122.31318693912908,
        "url": "https://www.seattlebesttea.com/",
        "has_patio": false,
        "cuisine": "Cafe",
        "image": "assets/seattle_best_tea.jpg"
    },
    {
        "name": "Kamonegi",
        "latitude": 47.654219370480455,
        "longitude": -122.34435514465629,
        "url": "https://www.kamonegiseattle.com/",
        "has_patio": false,
        "cuisine": "Japanese",
        "image": "assets/kamonegi.jpg"
    },
    {
        "name": "Toyoda Sushi",
        "latitude": 47.721377769862634,
        "longitude": -122.2950391287354,
        "url": "https://www.facebook.com/toyodasushi",
        "has_patio": false,
        "cuisine": "Japanese",
        "image": "assets/toyoda_sushi.jpg"
    },
    {
        "name": "Costa's",
        "latitude": 47.66299606567164,
        "longitude": -122.3133402662642,
        "url": "https://www.costasseattle.com/",
        "has_patio": false,
        "cuisine": "Greek",
        "image": "assets/costa's.jpg"
    },
    {
        "name": "Arigato Sushi",
        "latitude": 47.6765399309586,
        "longitude":  -122.35417786739815,
        "url": "http://arigato.menu11.com/",
        "has_patio": true,
        "cuisine": "Japanese",
        "image": "assets/arigato_sushi.jpg"
    },
    {
        "name": "Oxbow",
        "latitude": 47.64040995540413,
        "longitude":  -122.30203964468622,
        "url": "https://www.oxbowmontlake.com/",
        "has_patio": false,
        "cuisine": "Bakery",
        "image": "assets/oxbow.jpg"
    },
    {
        "name": "Portage Bay Cafe",
        "latitude": 47.65771541279295,
        "longitude":  -122.31768283430614,
        "url": "https://www.portagebaycafe.com/",
        "has_patio": true,
        "cuisine": "Cafe",
        "image": "assets/portage_bay_cafe.jpg"
    },
    {
        "name": "Sultan Gyro Grill",
        "latitude": 47.65916097098205,
        "longitude": -122.31296787548699,
        "url": "https://www.yelp.com/biz/sultan-gyro-grill-and-shawarma-seattle",
        "has_patio": false,
        "cuisine": "Mediterranean",
        "image": "assets/sultan_gyro_grill.png"
    },
    {
        "name": "Aladdin CharBurger",
        "latitude": 47.65809525317369,
        "longitude":  -122.31327179691436,
        "url": "https://www.aladdincharburger.com/",
        "has_patio": false,
        "cuisine": "Burger",
        "image": "assets/aladdin_charburger.jpg"
    },
    {
        "name": "Thai Tom",
        "latitude": 47.66494192435156,
        "longitude": -122.31306794488486,
        "url": "https://thaitomseattle.com/",
        "has_patio": false,
        "cuisine": "Thai",
        "image": "assets/thai_tom.jpg"
    },
    {
        "name": "Issian",
        "latitude": 47.66164636722708,
        "longitude": -122.33828702139809,
        "url": "https://issianjapanesestonegrill.weebly.com/",
        "has_patio": false,
        "cuisine": "Japanese",
        "image": "assets/issian.png"
    },
    {
        "name": "Samurai Noodle",
        "latitude": 47.662150261711396,
        "longitude": -122.31205702767754,
        "url": "https://www.samurainoodle.com/",
        "has_patio": false,
        "cuisine": "Japanese",
        "image": "assets/samurai_noodle.jpg"
    },
    {
        "name": "Ezell's Famous Chicken",
        "latitude": 47.661791489792776,
        "longitude": -122.33089907796148,
        "url": "https://ezellschicken.com/",
        "has_patio": false,
        "cuisine": "Fast Food",
        "image": "assets/ezell's_famous_chicken.jpg"
    },
    {
        "name": "Birria Pepe El Toro",
        "latitude": 47.67042786909221,
        "longitude": -122.3127671898264,
        "url": "https://www.birrieria-pepeeltoro.com/",
        "has_patio": false,
        "cuisine": "Mexican",
        "image": "assets/birria_pepe_el_toro.jpg"
    },
    {
        "name": "Cafe on the Ave",
        "latitude": 47.658593144048815,
        "longitude": -122.31332774551767,
        "url": "https://cafeontheave.site/",
        "has_patio": true,
        "cuisine": "Cafe",
        "image": "assets/cafe_on_the_ave.jpg"
    },
    {
        "name": "Hiroshi's Poke",
        "latitude": 47.66363330233521,
        "longitude": -122.31620878961279,
        "url": "https://www.example.com",
        "has_patio": false,
        "cuisine": "Hawaiian",
        "image": "assets/hiroshi's_poke.jpg"
    },
    {
        "name": "One Day Cafe",
        "latitude": 47.18448638819438,
        "longitude": -122.48503180040143,
        "url": "https://www.instagram.com/onedaycafe.wa/",
        "has_patio": false,
        "cuisine": "Cafe",
        "image": "assets/one_day_cafe.png"
    },
    {
        "name": "Local Public Eatery",
        "latitude": 49.28441068867758,
        "longitude": -123.10392684758963,
        "url": "https://localpubliceatery.com/neighbourhoods/gastown/",
        "has_patio": true,
        "cuisine": "Bar",
        "image": "assets/local_public_eatery.jpg"
    },
    {
        "name": "Himitsu Teriyaki",
        "latitude": 47.69381566888056,
        "longitude": -122.31002692371351,
        "url": "https://himitsuteriyaki.menu11.com/",
        "has_patio": false,
        "cuisine": "Japanese",
        "image": "assets/saint_bread.jpg"
    },

    {
        "name": "Jack's BBQ",
        "latitude": 47.5687569628992,
        "longitude": -122.32207940795915,
        "url": "https://jacksbbq.com/",
        "has_patio": true,
        "cuisine": "BBQ",
        "image": "assets/jack's_bbq.png"
    },

    {
        "name": "Geraldine's",
        "latitude": 47.558029,
        "longitude": -122.2848895,
        "url": "https://www.geraldinescounter.com/?utm_source=gmb",
        "has_patio": true,
        "cuisine": "Breakfast",
        "image": "assets/geraldine's.jpg"
    },

    {
        "name": "Uneeda Burger",
        "latitude": 47.66121537269227,
        "longitude": -122.34631087836202,
        "url": "http://uneedaburger.com/",
        "has_patio": true,
        "cuisine": "Burger",
        "image": "assets/uneeda_burger.jpg"
    },
    {
        "name": "Brick'N'Cheese Seattle",
        "latitude": 47.621353104879674,
        "longitude": -122.31510526910094,
        "url": "https://brickncheese.com/",
        "has_patio": false,
        "cuisine": "French",
        "image": "assets/brick'n'cheese_seattle.jpg"
    },

    {
        "name": "The Flour Box",
        "latitude": 47.55263766338159,
        "longitude": -122.27748799259626,
        "url": "https://www.theflourboxseattle.com/",
        "has_patio": true,
        "cuisine": "Bakery",
        "image": "assets/the_flour_box.png"
    },
    {
        "name": "Cafe Javasti",
        "latitude": 47.69156686391974,
        "longitude": -122.2908980009539,
        "url": "http://javasti.com/",
        "has_patio": false,
        "cuisine": "Bakery",
        "image": "assets/cafe_javasti.png"
    },
    {
        "name": "Thanh Vá»‹",
        "latitude": 47.65915140370624,
        "longitude": -122.31298398800003,
        "url": "https://thanhviudistrict.com/",
        "has_patio": false,
        "cuisine": "Vietnamese",
        "image": "assets/thanh_vi.jpg"
    },
    {
        "name": "Nana's Green Tea",
        "latitude": 47.61995728409627,
        "longitude": -122.33291129084073,
        "url": "https://www.nanasgreenteaseattle.com/",
        "has_patio": true,
        "cuisine": "Japanese",
        "image": "assets/nana's_green_tea.png"
    },
    {
        "name": "Sizzle & Crunch",
        "latitude": 47.65852681435086,
        "longitude": -122.31358965398644,
        "url": "https://sizzleandcrunch.com/",
        "has_patio": false,
        "cuisine": "Vietnamese",
        "image": "assets/sizzle_&_crunch.jpg"
    },
    {
        "name": "Moge Tee",
        "latitude": 47.671932499155155,
        "longitude": -122.30919989893854,
        "url": "https://www.mogeteeusa.com/home",
        "has_patio": false,
        "cuisine": "Cafe",
        "image": "assets/moge_tee.png"
    },
    {
        "name": "Araya's Place",
        "latitude": 47.6800446355248,
        "longitude": -122.31411538487157,
        "url": "http://www.arayasplace.com/",
        "has_patio": false,
        "cuisine": "Thai",
        "image": "assets/araya's_place.jpg"
    },
    {
        "name": "Aladdin Gyro-Cery",
        "latitude": 47.657960,
        "longitude": -122.313390,
        "url": "https://www.aladdingyro.com",
        "has_patio": true,
        "cuisine": "Mediterranean",
        "image": "assets/aladdin_gyro-cery.jpg"
    }
]